city,cloudiness,country,date,humidity,lat,lng,max_temp,wind_speed
Chuy,92,UY,1538118500,96,-33.69,-53.46,59.19,15.5
Esperance,0,AU,1538118712,70,-33.86,121.89,61.89,10.8
Indianola,1,US,1538117580,74,40.24,-100.42,51.98,14.99
Albany,0,AU,1538118454,59,-35.02,117.88,61.53,13.82
Chumikan,0,RU,1538118712,51,54.72,135.31,64.14,11.81
Ribeira Grande,20,PT,1538116200,83,38.52,-28.7,73.4,3.36
